,drone25_time,drone25_CTUN_ThI,drone25_CTUN_ABst,drone25_CTUN_ThO,drone25_CTUN_ThH,drone25_CTUN_DAlt,drone25_CTUN_Alt,drone25_CTUN_BAlt,drone25_CTUN_DSAlt,drone25_CTUN_SAlt,drone25_CTUN_TAlt,drone25_CTUN_DCRt,drone25_CTUN_CRt,drone25_FTN_NDn,drone25_FTN_DnF1,drone25_FTN_DnF2,drone25_FTN_DnF3,drone25_FTN_DnF4,drone25_MAV_chan,drone25_MAV_txp,drone25_MAV_rxp,drone25_MAV_rxdp,drone25_MAV_flags,drone25_MAV_ss,drone25_MAV_tf,drone25_ATT_DesRoll,drone25_ATT_Roll,drone25_ATT_DesPitch,drone25_ATT_Pitch,drone25_ATT_DesYaw,drone25_ATT_Yaw,drone25_ATT_ErrRP,drone25_ATT_ErrYaw,drone25_ATT_AEKF,drone25_RATE_RDes,drone25_RATE_R,drone25_RATE_ROut,drone25_RATE_PDes,drone25_RATE_P,drone25_RATE_POut,drone25_RATE_YDes,drone25_RATE_Y,drone25_RATE_YOut,drone25_RATE_ADes,drone25_RATE_A,drone25_RATE_AOut,drone25_XKF1_C,drone25_XKF1_Roll,drone25_XKF1_Pitch,drone25_XKF1_Yaw,drone25_XKF1_VN,drone25_XKF1_VE,drone25_XKF1_VD,drone25_XKF1_dPD,drone25_XKF1_PN,drone25_XKF1_PE,drone25_XKF1_PD,drone25_XKF1_GX,drone25_XKF1_GY,drone25_XKF1_GZ,drone25_XKF1_OH,drone25_XKF2_C,drone25_XKF2_AX,drone25_XKF2_AY,drone25_XKF2_AZ,drone25_XKF2_VWN,drone25_XKF2_VWE,drone25_XKF2_MN,drone25_XKF2_ME,drone25_XKF2_MD,drone25_XKF2_MX,drone25_XKF2_MY,drone25_XKF2_MZ,drone25_XKF2_IDX,drone25_XKF2_IDY,drone25_XKF2_IS,drone25_XKF3_C,drone25_XKF3_IVN,drone25_XKF3_IVE,drone25_XKF3_IVD,drone25_XKF3_IPN,drone25_XKF3_IPE,drone25_XKF3_IPD,drone25_XKF3_IMX,drone25_XKF3_IMY,drone25_XKF3_IMZ,drone25_XKF3_IYAW,drone25_XKF3_IVT,drone25_XKF3_RErr,drone25_XKF3_ErSc,drone25_XKF4_C,drone25_XKF4_SV,drone25_XKF4_SP,drone25_XKF4_SH,drone25_XKF4_SM,drone25_XKF4_SVT,drone25_XKF4_errRP,drone25_XKF4_OFN,drone25_XKF4_OFE,drone25_XKF4_FS,drone25_XKF4_TS,drone25_XKF4_SS,drone25_XKF4_GPS,drone25_XKF4_PI,drone25_XKF5_C,drone25_XKF5_NI,drone25_XKF5_FIX,drone25_XKF5_FIY,drone25_XKF5_AFI,drone25_XKF5_HAGL,drone25_XKF5_offset,drone25_XKF5_RI,drone25_XKF5_rng,drone25_XKF5_Herr,drone25_XKF5_eAng,drone25_XKF5_eVel,drone25_XKF5_ePos,drone25_XKFS_C,drone25_XKFS_MI,drone25_XKFS_BI,drone25_XKFS_GI,drone25_XKFS_AI,drone25_XKQ_C,drone25_XKQ_Q1,drone25_XKQ_Q2,drone25_XKQ_Q3,drone25_XKQ_Q4,drone25_XKV1_C,drone25_XKV1_V00,drone25_XKV1_V01,drone25_XKV1_V02,drone25_XKV1_V03,drone25_XKV1_V04,drone25_XKV1_V05,drone25_XKV1_V06,drone25_XKV1_V07,drone25_XKV1_V08,drone25_XKV1_V09,drone25_XKV1_V10,drone25_XKV1_V11,drone25_XKV2_C,drone25_XKV2_V12,drone25_XKV2_V13,drone25_XKV2_V14,drone25_XKV2_V15,drone25_XKV2_V16,drone25_XKV2_V17,drone25_XKV2_V18,drone25_XKV2_V19,drone25_XKV2_V20,drone25_XKV2_V21,drone25_XKV2_V22,drone25_XKV2_V23,drone25_XKT_C,drone25_XKT_Cnt,drone25_XKT_IMUMin,drone25_XKT_IMUMax,drone25_XKT_EKFMin,drone25_XKT_EKFMax,drone25_XKT_AngMin,drone25_XKT_AngMax,drone25_XKT_VMin,drone25_XKT_VMax,drone25_AHR2_Roll,drone25_AHR2_Pitch,drone25_AHR2_Yaw,drone25_AHR2_Alt,drone25_AHR2_Lat,drone25_AHR2_Lng,drone25_AHR2_Q1,drone25_AHR2_Q2,drone25_AHR2_Q3,drone25_AHR2_Q4,drone25_POS_Lat,drone25_POS_Lng,drone25_POS_Alt,drone25_POS_RelHomeAlt,drone25_POS_RelOriginAlt,drone25_MOTB_LiftMax,drone25_MOTB_BatVolt,drone25_MOTB_BatRes,drone25_MOTB_ThLimit,drone25_RCIN_C1,drone25_RCIN_C2,drone25_RCIN_C3,drone25_RCIN_C4,drone25_RCIN_C5,drone25_RCIN_C6,drone25_RCIN_C7,drone25_RCIN_C8,drone25_RCIN_C9,drone25_RCIN_C10,drone25_RCIN_C11,drone25_RCIN_C12,drone25_RCIN_C13,drone25_RCIN_C14,drone25_RCI2_C15,drone25_RCI2_C16,drone25_RCI2_OMask,drone25_RSSI_RXRSSI,drone25_RCOU_C1,drone25_RCOU_C2,drone25_RCOU_C3,drone25_RCOU_C4,drone25_RCOU_C5,drone25_RCOU_C6,drone25_RCOU_C7,drone25_RCOU_C8,drone25_RCOU_C9,drone25_RCOU_C10,drone25_RCOU_C11,drone25_RCOU_C12,drone25_RCOU_C13,drone25_RCOU_C14,drone25_PSCN_TPN,drone25_PSCN_PN,drone25_PSCN_DVN,drone25_PSCN_TVN,drone25_PSCN_VN,drone25_PSCN_DAN,drone25_PSCN_TAN,drone25_PSCN_AN,drone25_PSCE_TPE,drone25_PSCE_PE,drone25_PSCE_DVE,drone25_PSCE_TVE,drone25_PSCE_VE,drone25_PSCE_DAE,drone25_PSCE_TAE,drone25_PSCE_AE,drone25_PSCD_TPD,drone25_PSCD_PD,drone25_PSCD_DVD,drone25_PSCD_TVD,drone25_PSCD_VD,drone25_PSCD_DAD,drone25_PSCD_TAD,drone25_PSCD_AD,drone25_VIBE_IMU,drone25_VIBE_VibeX,drone25_VIBE_VibeY,drone25_VIBE_VibeZ,drone25_VIBE_Clip,drone25_CTRL_RMSRollP,drone25_CTRL_RMSRollD,drone25_CTRL_RMSPitchP,drone25_CTRL_RMSPitchD,drone25_CTRL_RMSYaw,drone25_CMD_CTot,drone25_CMD_CNum,drone25_CMD_CId,drone25_CMD_Prm1,drone25_CMD_Prm2,drone25_CMD_Prm3,drone25_CMD_Prm4,drone25_CMD_Lat,drone25_CMD_Lng,drone25_CMD_Alt,drone25_CMD_Frame,drone25_ORGN_Type,drone25_ORGN_Lat,drone25_ORGN_Lng,drone25_ORGN_Alt,drone25_EV_Id,drone25_IMU_I,drone25_IMU_GyrX,drone25_IMU_GyrY,drone25_IMU_GyrZ,drone25_IMU_AccX,drone25_IMU_AccY,drone25_IMU_AccZ,drone25_IMU_EG,drone25_IMU_EA,drone25_IMU_T,drone25_IMU_GH,drone25_IMU_AH,drone25_IMU_GHz,drone25_IMU_AHz,drone25_GPS_I,drone25_GPS_Status,drone25_GPS_GMS,drone25_GPS_GWk,drone25_GPS_NSats,drone25_GPS_HDop,drone25_GPS_Lat,drone25_GPS_Lng,drone25_GPS_Alt,drone25_GPS_Spd,drone25_GPS_GCrs,drone25_GPS_VZ,drone25_GPS_Yaw,drone25_GPS_U,drone25_GPA_I,drone25_GPA_VDop,drone25_GPA_HAcc,drone25_GPA_VAcc,drone25_GPA_SAcc,drone25_GPA_YAcc,drone25_GPA_VV,drone25_GPA_SMS,drone25_GPA_Delta,drone25_POWR_Vcc,drone25_POWR_VServo,drone25_POWR_Flags,drone25_POWR_AccFlags,drone25_POWR_Safety,drone25_BAT_Instance,drone25_BAT_Volt,drone25_BAT_VoltR,drone25_BAT_Curr,drone25_BAT_CurrTot,drone25_BAT_EnrgTot,drone25_BAT_Temp,drone25_BAT_Res,drone25_BAT_RemPct,drone25_MAG_I,drone25_MAG_MagX,drone25_MAG_MagY,drone25_MAG_MagZ,drone25_MAG_OfsX,drone25_MAG_OfsY,drone25_MAG_OfsZ,drone25_MAG_MOX,drone25_MAG_MOY,drone25_MAG_MOZ,drone25_MAG_Health,drone25_MAG_S,drone25_BARO_I,drone25_BARO_Alt,drone25_BARO_Press,drone25_BARO_Temp,drone25_BARO_CRt,drone25_BARO_SMS,drone25_BARO_Offset,drone25_BARO_GndTemp,drone25_BARO_Health,drone25_XKY0_C,drone25_XKY0_YC,drone25_XKY0_YCS,drone25_XKY0_Y0,drone25_XKY0_Y1,drone25_XKY0_Y2,drone25_XKY0_Y3,drone25_XKY0_Y4,drone25_XKY0_W0,drone25_XKY0_W1,drone25_XKY0_W2,drone25_XKY0_W3,drone25_XKY0_W4,drone25_XKY1_C,drone25_XKY1_IVN0,drone25_XKY1_IVN1,drone25_XKY1_IVN2,drone25_XKY1_IVN3,drone25_XKY1_IVN4,drone25_XKY1_IVE0,drone25_XKY1_IVE1,drone25_XKY1_IVE2,drone25_XKY1_IVE3,drone25_XKY1_IVE4,drone25_DU32_Id,drone25_DU32_Value,drone25_TERR_Status,drone25_TERR_Lat,drone25_TERR_Lng,drone25_TERR_Spacing,drone25_TERR_TerrH,drone25_TERR_CHeight,drone25_TERR_Pending,drone25_TERR_Loaded,drone25_PM_NLon,drone25_PM_NLoop,drone25_PM_MaxT,drone25_PM_Mem,drone25_PM_Load,drone25_PM_ErrL,drone25_PM_IntE,drone25_PM_ErrC,drone25_PM_SPIC,drone25_PM_I2CC,drone25_PM_I2CI,drone25_PM_Ex,drone25_RAD_RSSI,drone25_RAD_RemRSSI,drone25_RAD_TxBuf,drone25_RAD_Noise,drone25_RAD_RemNoise,drone25_RAD_RxErrors,drone25_RAD_Fixed,drone25_DSF_Dp,drone25_DSF_Blk,drone25_DSF_Bytes,drone25_DSF_FMn,drone25_DSF_FMx,drone25_DSF_FAv,drone25_UBX1_Instance,drone25_UBX1_noisePerMS,drone25_UBX1_jamInd,drone25_UBX1_aPower,drone25_UBX1_agcCnt,drone25_UBX1_config,drone25_UBX2_Instance,drone25_UBX2_ofsI,drone25_UBX2_magI,drone25_UBX2_ofsQ,drone25_UBX2_magQ,drone25_SRTL_Active,drone25_SRTL_NumPts,drone25_SRTL_MaxPts,drone25_SRTL_Action,drone25_SRTL_N,drone25_SRTL_E,drone25_SRTL_D,drone25_ARM_ArmState,drone25_ARM_ArmChecks,drone25_ARM_Forced,drone25_ARM_Method,drone25_AUXF_function,drone25_AUXF_pos,drone25_AUXF_source,drone25_AUXF_result,drone25_D32_Id,drone25_D32_Value,drone25_alt,drone25_roll,drone25_pitch,drone25_heading_yaw,drone25_tilt_angle,drone25_current.alt,drone25_nav_state,drone25_rho,drone25_baro_pressure_pa,drone25_lon,drone25_lat,drone25_z,drone25_on_alt_setpoint_bool,drone25_is_on_alt_level,drone25_level,drone25_WS_from_tilt,drone25_WD_from_tilt,drone25_u_from_tilt,drone25_v_from_tilt,drone25_sbaCO2,drone25_sbaT,drone25_sbaH,drone25_sbaP,drone25_mpcT,drone25_scdCO2,drone25_scdT,drone25_scdH,drone25_bmeT,drone25_bmeH,drone25_bmeP,drone25_bmeA,drone25_mlxAmbT,drone25_mlxObjT,drone25_VRL_F2600,drone25_ppm_CH4,drone25_Rs_F2600,drone25_T6613,drone25_mpcTemp,drone25_windMPH,drone25_shtTemp,drone25_wind_ms,drone25_mpcTemp_pot,drone25_bmeT_pot,drone25_shtTemp_pot,drone25_saturation_vapor_pressure_bme,drone25_vapor_pressure_bme,drone25_specific_humidity_bme,drone25_esat_hPa,drone25_vapor_pressure_hPa,drone25_abs_humidity,drone25_sbaCO2_anomaly
2023-08-21 09:22:25,,,,,,,,,,,,,,,,,,,,,,,,,,,,,,,,,,,,,,,,,,,,,,,,,,,,,,,,,,,,,,,,,,,,,,,,,,,,,,,,,,,,,,,,,,,,,,,,,,,,,,,,,,,,,,,,,,,,,,,,,,,,,,,,,,,,,,,,,,,,,,,,,,,,,,,,,,,,,,,,,,,,,,,,,,,,,,,,,,,,,,,,,,,,,,,,,,,,,,,,,,,,,,,,,,,,,,,,,,,,,,,,,,,,,,,,,,,,,,,,,,,,,,,,,,,,,,,,,,,,,,,,,,,,,,,,,,,,,,,,,,,,,,,,,,,,,,,,,,,,,,,,,,,,,,,,,,,,,,,,,,,,,,,,,,,,,,,,,,,,,,,,,,,,,,,,,,,,,,,,,,,,,,,,,,,,,,,,,,,,,,,,,,,,,,,,,,,,,,,,,,,,,,,,,,,,,,,,,,,,,,,,,,,,,,,,,,,,,,,,,,,,,,,,,,,,,,,,,,,,,,,,,,,,,,,,,,
2023-08-21 09:22:30,,,,,,,,,,,,,,,,,,,,,,,,,,,,,,,,,,,,,,,,,,,,,,,,,,,,,,,,,,,,,,,,,,,,,,,,,,,,,,,,,,,,,,,,,,,,,,,,,,,,,,,,,,,,,,,,,,,,,,,,,,,,,,,,,,,,,,,,,,,,,,,,,,,,,,,,,,,,,,,,,,,,,,,,,,,,,,,,,,,,,,,,,,,,,,,,,,,,,,,,,,,,,,,,,,,,,,,,,,,,,,,,,,,,,,,,,,,,,,,,,,,,,,,,,,,,,,,,,,,,,,,,,,,,,,,,,,,,,,,,,,,,,,,,,,,,,,,,,,,,,,,,,,,,,,,,,,,,,,,,,,,,,,,,,,,,,,,,,,,,,,,,,,,,,,,,,,,,,,,,,,,,,,,,,,,,,,,,,,,,,,,,,,,,,,,,,,,,,,,,,,,,,,,,,,,,,,,,,,,,,,,,,,,,,,,,,,,,,,,,,,,,,,,,,,,,,,,,,,,,,,,,,,,,,,,,,,
2023-08-21 09:22:35,,,,,,,,,,,,,,,,,,,,,,,,,,,,,,,,,,,,,,,,,,,,,,,,,,,,,,,,,,,,,,,,,,,,,,,,,,,,,,,,,,,,,,,,,,,,,,,,,,,,,,,,,,,,,,,,,,,,,,,,,,,,,,,,,,,,,,,,,,,,,,,,,,,,,,,,,,,,,,,,,,,,,,,,,,,,,,,,,,,,,,,,,,,,,,,,,,,,,,,,,,,,,,,,,,,,,,,,,,,,,,,,,,,,,,,,,,,,,,,,,,,,,,,,,,,,,,,,,,,,,,,,,,,,,,,,,,,,,,,,,,,,,,,,,,,,,,,,,,,,,,,,,,,,,,,,,,,,,,,,,,,,,,,,,,,,,,,,,,,,,,,,,,,,,,,,,,,,,,,,,,,,,,,,,,,,,,,,,,,,,,,,,,,,,,,,,,,,,,,,,,,,,,,,,,,,,,,,,,,,,,,,,,,,,,,,,,,,,,,,,,,,,,,,,,,,,,,,,,,,,,,,,,,,,,,,,,
2023-08-21 09:22:40,,,,,,,,,,,,,,,,,,,,,,,,,,,,,,,,,,,,,,,,,,,,,,,,,,,,,,,,,,,,,,,,,,,,,,,,,,,,,,,,,,,,,,,,,,,,,,,,,,,,,,,,,,,,,,,,,,,,,,,,,,,,,,,,,,,,,,,,,,,,,,,,,,,,,,,,,,,,,,,,,,,,,,,,,,,,,,,,,,,,,,,,,,,,,,,,,,,,,,,,,,,,,,,,,,,,,,,,,,,,,,,,,,,,,,,,,,,,,,,,,,,,,,,,,,,,,,,,,,,,,,,,,,,,,,,,,,,,,,,,,,,,,,,,,,,,,,,,,,,,,,,,,,,,,,,,,,,,,,,,,,,,,,,,,,,,,,,,,,,,,,,,,,,,,,,,,,,,,,,,,,,,,,,,,,,,,,,,,,,,,,,,,,,,,,,,,,,,,,,,,,,,,,,,,,,,,,,,,,,,,,,,,,,,,,,,,,,,,,,,,,,,,,,,,,,,,,,,,,,,,,,,,,,,,,,,,,
2023-08-21 09:22:45,,,,,,,,,,,,,,,,,,,,,,,,,,,,,,,,,,,,,,,,,,,,,,,,,,,,,,,,,,,,,,,,,,,,,,,,,,,,,,,,,,,,,,,,,,,,,,,,,,,,,,,,,,,,,,,,,,,,,,,,,,,,,,,,,,,,,,,,,,,,,,,,,,,,,,,,,,,,,,,,,,,,,,,,,,,,,,,,,,,,,,,,,,,,,,,,,,,,,,,,,,,,,,,,,,,,,,,,,,,,,,,,,,,,,,,,,,,,,,,,,,,,,,,,,,,,,,,,,,,,,,,,,,,,,,,,,,,,,,,,,,,,,,,,,,,,,,,,,,,,,,,,,,,,,,,,,,,,,,,,,,,,,,,,,,,,,,,,,,,,,,,,,,,,,,,,,,,,,,,,,,,,,,,,,,,,,,,,,,,,,,,,,,,,,,,,,,,,,,,,,,,,,,,,,,,,,,,,,,,,,,,,,,,,,,,,,,,,,,,,,,,,,,,,,,,,,,,,,,,,,,,,,,,,,,,,,,
2023-08-21 09:22:50,,,,,,,,,,,,,,,,,,,,,,,,,,,,,,,,,,,,,,,,,,,,,,,,,,,,,,,,,,,,,,,,,,,,,,,,,,,,,,,,,,,,,,,,,,,,,,,,,,,,,,,,,,,,,,,,,,,,,,,,,,,,,,,,,,,,,,,,,,,,,,,,,,,,,,,,,,,,,,,,,,,,,,,,,,,,,,,,,,,,,,,,,,,,,,,,,,,,,,,,,,,,,,,,,,,,,,,,,,,,,,,,,,,,,,,,,,,,,,,,,,,,,,,,,,,,,,,,,,,,,,,,,,,,,,,,,,,,,,,,,,,,,,,,,,,,,,,,,,,,,,,,,,,,,,,,,,,,,,,,,,,,,,,,,,,,,,,,,,,,,,,,,,,,,,,,,,,,,,,,,,,,,,,,,,,,,,,,,,,,,,,,,,,,,,,,,,,,,,,,,,,,,,,,,,,,,,,,,,,,,,,,,,,,,,,,,,,,,,,,,,,,,,,,,,,,,,,,,,,,,,,,,,,,,,,,,,
2023-08-21 09:22:55,,,,,,,,,,,,,,,,,,,,,,,,,,,,,,,,,,,,,,,,,,,,,,,,,,,,,,,,,,,,,,,,,,,,,,,,,,,,,,,,,,,,,,,,,,,,,,,,,,,,,,,,,,,,,,,,,,,,,,,,,,,,,,,,,,,,,,,,,,,,,,,,,,,,,,,,,,,,,,,,,,,,,,,,,,,,,,,,,,,,,,,,,,,,,,,,,,,,,,,,,,,,,,,,,,,,,,,,,,,,,,,,,,,,,,,,,,,,,,,,,,,,,,,,,,,,,,,,,,,,,,,,,,,,,,,,,,,,,,,,,,,,,,,,,,,,,,,,,,,,,,,,,,,,,,,,,,,,,,,,,,,,,,,,,,,,,,,,,,,,,,,,,,,,,,,,,,,,,,,,,,,,,,,,,,,,,,,,,,,,,,,,,,,,,,,,,,,,,,,,,,,,,,,,,,,,,,,,,,,,,,,,,,,,,,,,,,,,,,,,,,,,,,,,,,,,,,,,,,,,,,,,,,,,,,,,,,
2023-08-21 09:23:00,,,,,,,,,,,,,,,,,,,,,,,,,,,,,,,,,,,,,,,,,,,,,,,,,,,,,,,,,,,,,,,,,,,,,,,,,,,,,,,,,,,,,,,,,,,,,,,,,,,,,,,,,,,,,,,,,,,,,,,,,,,,,,,,,,,,,,,,,,,,,,,,,,,,,,,,,,,,,,,,,,,,,,,,,,,,,,,,,,,,,,,,,,,,,,,,,,,,,,,,,,,,,,,,,,,,,,,,,,,,,,,,,,,,,,,,,,,,,,,,,,,,,,,,,,,,,,,,,,,,,,,,,,,,,,,,,,,,,,,,,,,,,,,,,,,,,,,,,,,,,,,,,,,,,,,,,,,,,,,,,,,,,,,,,,,,,,,,,,,,,,,,,,,,,,,,,,,,,,,,,,,,,,,,,,,,,,,,,,,,,,,,,,,,,,,,,,,,,,,,,,,,,,,,,,,,,,,,,,,,,,,,,,,,,,,,,,,,,,,,,,,,,,,,,,,,,,,,,,,,,,,,,,,,,,,,,,
2023-08-21 09:23:05,,,,,,,,,,,,,,,,,,,,,,,,,,,,,,,,,,,,,,,,,,,,,,,,,,,,,,,,,,,,,,,,,,,,,,,,,,,,,,,,,,,,,,,,,,,,,,,,,,,,,,,,,,,,,,,,,,,,,,,,,,,,,,,,,,,,,,,,,,,,,,,,,,,,,,,,,,,,,,,,,,,,,,,,,,,,,,,,,,,,,,,,,,,,,,,,,,,,,,,,,,,,,,,,,,,,,,,,,,,,,,,,,,,,,,,,,,,,,,,,,,,,,,,,,,,,,,,,,,,,,,,,,,,,,,,,,,,,,,,,,,,,,,,,,,,,,,,,,,,,,,,,,,,,,,,,,,,,,,,,,,,,,,,,,,,,,,,,,,,,,,,,,,,,,,,,,,,,,,,,,,,,,,,,,,,,,,,,,,,,,,,,,,,,,,,,,,,,,,,,,,,,,,,,,,,,,,,,,,,,,,,,,,,,,,,,,,,,,,,,,,,,,,,,,,,,,,,,,,,,,,,,,,,,,,,,,,
2023-08-21 09:23:10,,,,,,,,,,,,,,,,,,,,,,,,,,,,,,,,,,,,,,,,,,,,,,,,,,,,,,,,,,,,,,,,,,,,,,,,,,,,,,,,,,,,,,,,,,,,,,,,,,,,,,,,,,,,,,,,,,,,,,,,,,,,,,,,,,,,,,,,,,,,,,,,,,,,,,,,,,,,,,,,,,,,,,,,,,,,,,,,,,,,,,,,,,,,,,,,,,,,,,,,,,,,,,,,,,,,,,,,,,,,,,,,,,,,,,,,,,,,,,,,,,,,,,,,,,,,,,,,,,,,,,,,,,,,,,,,,,,,,,,,,,,,,,,,,,,,,,,,,,,,,,,,,,,,,,,,,,,,,,,,,,,,,,,,,,,,,,,,,,,,,,,,,,,,,,,,,,,,,,,,,,,,,,,,,,,,,,,,,,,,,,,,,,,,,,,,,,,,,,,,,,,,,,,,,,,,,,,,,,,,,,,,,,,,,,,,,,,,,,,,,,,,,,,,,,,,,,,,,,,,,,,,,,,,,,,,,,
2023-08-21 09:23:15,,,,,,,,,,,,,,,,,,,,,,,,,,,,,,,,,,,,,,,,,,,,,,,,,,,,,,,,,,,,,,,,,,,,,,,,,,,,,,,,,,,,,,,,,,,,,,,,,,,,,,,,,,,,,,,,,,,,,,,,,,,,,,,,,,,,,,,,,,,,,,,,,,,,,,,,,,,,,,,,,,,,,,,,,,,,,,,,,,,,,,,,,,,,,,,,,,,,,,,,,,,,,,,,,,,,,,,,,,,,,,,,,,,,,,,,,,,,,,,,,,,,,,,,,,,,,,,,,,,,,,,,,,,,,,,,,,,,,,,,,,,,,,,,,,,,,,,,,,,,,,,,,,,,,,,,,,,,,,,,,,,,,,,,,,,,,,,,,,,,,,,,,,,,,,,,,,,,,,,,,,,,,,,,,,,,,,,,,,,,,,,,,,,,,,,,,,,,,,,,,,,,,,,,,,,,,,,,,,,,,,,,,,,,,,,,,,,,,,,,,,,,,,,,,,,,,,,,,,,,,,,,,,,,,,,,,,
2023-08-21 09:23:20,,,,,,,,,,,,,,,,,,,,,,,,,,,,,,,,,,,,,,,,,,,,,,,,,,,,,,,,,,,,,,,,,,,,,,,,,,,,,,,,,,,,,,,,,,,,,,,,,,,,,,,,,,,,,,,,,,,,,,,,,,,,,,,,,,,,,,,,,,,,,,,,,,,,,,,,,,,,,,,,,,,,,,,,,,,,,,,,,,,,,,,,,,,,,,,,,,,,,,,,,,,,,,,,,,,,,,,,,,,,,,,,,,,,,,,,,,,,,,,,,,,,,,,,,,,,,,,,,,,,,,,,,,,,,,,,,,,,,,,,,,,,,,,,,,,,,,,,,,,,,,,,,,,,,,,,,,,,,,,,,,,,,,,,,,,,,,,,,,,,,,,,,,,,,,,,,,,,,,,,,,,,,,,,,,,,,,,,,,,,,,,,,,,,,,,,,,,,,,,,,,,,,,,,,,,,,,,,,,,,,,,,,,,,,,,,,,,,,,,,,,,,,,,,,,,,,,,,,,,,,,,,,,,,,,,,,,
2023-08-21 09:23:25,,,,,,,,,,,,,,,,,,,,,,,,,,,,,,,,,,,,,,,,,,,,,,,,,,,,,,,,,,,,,,,,,,,,,,,,,,,,,,,,,,,,,,,,,,,,,,,,,,,,,,,,,,,,,,,,,,,,,,,,,,,,,,,,,,,,,,,,,,,,,,,,,,,,,,,,,,,,,,,,,,,,,,,,,,,,,,,,,,,,,,,,,,,,,,,,,,,,,,,,,,,,,,,,,,,,,,,,,,,,,,,,,,,,,,,,,,,,,,,,,,,,,,,,,,,,,,,,,,,,,,,,,,,,,,,,,,,,,,,,,,,,,,,,,,,,,,,,,,,,,,,,,,,,,,,,,,,,,,,,,,,,,,,,,,,,,,,,,,,,,,,,,,,,,,,,,,,,,,,,,,,,,,,,,,,,,,,,,,,,,,,,,,,,,,,,,,,,,,,,,,,,,,,,,,,,,,,,,,,,,,,,,,,,,,,,,,,,,,,,,,,,,,,,,,,,,,,,,,,,,,,,,,,,,,,,,,
2023-08-21 09:23:30,,,,,,,,,,,,,,,,,,,,,,,,,,,,,,,,,,,,,,,,,,,,,,,,,,,,,,,,,,,,,,,,,,,,,,,,,,,,,,,,,,,,,,,,,,,,,,,,,,,,,,,,,,,,,,,,,,,,,,,,,,,,,,,,,,,,,,,,,,,,,,,,,,,,,,,,,,,,,,,,,,,,,,,,,,,,,,,,,,,,,,,,,,,,,,,,,,,,,,,,,,,,,,,,,,,,,,,,,,,,,,,,,,,,,,,,,,,,,,,,,,,,,,,,,,,,,,,,,,,,,,,,,,,,,,,,,,,,,,,,,,,,,,,,,,,,,,,,,,,,,,,,,,,,,,,,,,,,,,,,,,,,,,,,,,,,,,,,,,,,,,,,,,,,,,,,,,,,,,,,,,,,,,,,,,,,,,,,,,,,,,,,,,,,,,,,,,,,,,,,,,,,,,,,,,,,,,,,,,,,,,,,,,,,,,,,,,,,,,,,,,,,,,,,,,,,,,,,,,,,,,,,,,,,,,,,,,
2023-08-21 09:23:35,,,,,,,,,,,,,,,,,,,,,,,,,,,,,,,,,,,,,,,,,,,,,,,,,,,,,,,,,,,,,,,,,,,,,,,,,,,,,,,,,,,,,,,,,,,,,,,,,,,,,,,,,,,,,,,,,,,,,,,,,,,,,,,,,,,,,,,,,,,,,,,,,,,,,,,,,,,,,,,,,,,,,,,,,,,,,,,,,,,,,,,,,,,,,,,,,,,,,,,,,,,,,,,,,,,,,,,,,,,,,,,,,,,,,,,,,,,,,,,,,,,,,,,,,,,,,,,,,,,,,,,,,,,,,,,,,,,,,,,,,,,,,,,,,,,,,,,,,,,,,,,,,,,,,,,,,,,,,,,,,,,,,,,,,,,,,,,,,,,,,,,,,,,,,,,,,,,,,,,,,,,,,,,,,,,,,,,,,,,,,,,,,,,,,,,,,,,,,,,,,,,,,,,,,,,,,,,,,,,,,,,,,,,,,,,,,,,,,,,,,,,,,,,,,,,,,,,,,,,,,,,,,,,,,,,,,,
2023-08-21 09:23:40,,,,,,,,,,,,,,,,,,,,,,,,,,,,,,,,,,,,,,,,,,,,,,,,,,,,,,,,,,,,,,,,,,,,,,,,,,,,,,,,,,,,,,,,,,,,,,,,,,,,,,,,,,,,,,,,,,,,,,,,,,,,,,,,,,,,,,,,,,,,,,,,,,,,,,,,,,,,,,,,,,,,,,,,,,,,,,,,,,,,,,,,,,,,,,,,,,,,,,,,,,,,,,,,,,,,,,,,,,,,,,,,,,,,,,,,,,,,,,,,,,,,,,,,,,,,,,,,,,,,,,,,,,,,,,,,,,,,,,,,,,,,,,,,,,,,,,,,,,,,,,,,,,,,,,,,,,,,,,,,,,,,,,,,,,,,,,,,,,,,,,,,,,,,,,,,,,,,,,,,,,,,,,,,,,,,,,,,,,,,,,,,,,,,,,,,,,,,,,,,,,,,,,,,,,,,,,,,,,,,,,,,,,,,,,,,,,,,,,,,,,,,,,,,,,,,,,,,,,,,,,,,,,,,,,,,,,
2023-08-21 09:23:45,,,,,,,,,,,,,,,,,,,,,,,,,,,,,,,,,,,,,,,,,,,,,,,,,,,,,,,,,,,,,,,,,,,,,,,,,,,,,,,,,,,,,,,,,,,,,,,,,,,,,,,,,,,,,,,,,,,,,,,,,,,,,,,,,,,,,,,,,,,,,,,,,,,,,,,,,,,,,,,,,,,,,,,,,,,,,,,,,,,,,,,,,,,,,,,,,,,,,,,,,,,,,,,,,,,,,,,,,,,,,,,,,,,,,,,,,,,,,,,,,,,,,,,,,,,,,,,,,,,,,,,,,,,,,,,,,,,,,,,,,,,,,,,,,,,,,,,,,,,,,,,,,,,,,,,,,,,,,,,,,,,,,,,,,,,,,,,,,,,,,,,,,,,,,,,,,,,,,,,,,,,,,,,,,,,,,,,,,,,,,,,,,,,,,,,,,,,,,,,,,,,,,,,,,,,,,,,,,,,,,,,,,,,,,,,,,,,,,,,,,,,,,,,,,,,,,,,,,,,,,,,,,,,,,,,,,,
2023-08-21 09:23:50,,,,,,,,,,,,,,,,,,,,,,,,,,,,,,,,,,,,,,,,,,,,,,,,,,,,,,,,,,,,,,,,,,,,,,,,,,,,,,,,,,,,,,,,,,,,,,,,,,,,,,,,,,,,,,,,,,,,,,,,,,,,,,,,,,,,,,,,,,,,,,,,,,,,,,,,,,,,,,,,,,,,,,,,,,,,,,,,,,,,,,,,,,,,,,,,,,,,,,,,,,,,,,,,,,,,,,,,,,,,,,,,,,,,,,,,,,,,,,,,,,,,,,,,,,,,,,,,,,,,,,,,,,,,,,,,,,,,,,,,,,,,,,,,,,,,,,,,,,,,,,,,,,,,,,,,,,,,,,,,,,,,,,,,,,,,,,,,,,,,,,,,,,,,,,,,,,,,,,,,,,,,,,,,,,,,,,,,,,,,,,,,,,,,,,,,,,,,,,,,,,,,,,,,,,,,,,,,,,,,,,,,,,,,,,,,,,,,,,,,,,,,,,,,,,,,,,,,,,,,,,,,,,,,,,,,,,
2023-08-21 09:23:55,,,,,,,,,,,,,,,,,,,,,,,,,,,,,,,,,,,,,,,,,,,,,,,,,,,,,,,,,,,,,,,,,,,,,,,,,,,,,,,,,,,,,,,,,,,,,,,,,,,,,,,,,,,,,,,,,,,,,,,,,,,,,,,,,,,,,,,,,,,,,,,,,,,,,,,,,,,,,,,,,,,,,,,,,,,,,,,,,,,,,,,,,,,,,,,,,,,,,,,,,,,,,,,,,,,,,,,,,,,,,,,,,,,,,,,,,,,,,,,,,,,,,,,,,,,,,,,,,,,,,,,,,,,,,,,,,,,,,,,,,,,,,,,,,,,,,,,,,,,,,,,,,,,,,,,,,,,,,,,,,,,,,,,,,,,,,,,,,,,,,,,,,,,,,,,,,,,,,,,,,,,,,,,,,,,,,,,,,,,,,,,,,,,,,,,,,,,,,,,,,,,,,,,,,,,,,,,,,,,,,,,,,,,,,,,,,,,,,,,,,,,,,,,,,,,,,,,,,,,,,,,,,,,,,,,,,,
2023-08-21 09:24:00,,,,,,,,,,,,,,,,,,,,,,,,,,,,,,,,,,,,,,,,,,,,,,,,,,,,,,,,,,,,,,,,,,,,,,,,,,,,,,,,,,,,,,,,,,,,,,,,,,,,,,,,,,,,,,,,,,,,,,,,,,,,,,,,,,,,,,,,,,,,,,,,,,,,,,,,,,,,,,,,,,,,,,,,,,,,,,,,,,,,,,,,,,,,,,,,,,,,,,,,,,,,,,,,,,,,,,,,,,,,,,,,,,,,,,,,,,,,,,,,,,,,,,,,,,,,,,,,,,,,,,,,,,,,,,,,,,,,,,,,,,,,,,,,,,,,,,,,,,,,,,,,,,,,,,,,,,,,,,,,,,,,,,,,,,,,,,,,,,,,,,,,,,,,,,,,,,,,,,,,,,,,,,,,,,,,,,,,,,,,,,,,,,,,,,,,,,,,,,,,,,,,,,,,,,,,,,,,,,,,,,,,,,,,,,,,,,,,,,,,,,,,,,,,,,,,,,,,,,,,,,,,,,,,,,,,,,
2023-08-21 09:24:05,,,,,,,,,,,,,,,,,,,,,,,,,,,,,,,,,,,,,,,,,,,,,,,,,,,,,,,,,,,,,,,,,,,,,,,,,,,,,,,,,,,,,,,,,,,,,,,,,,,,,,,,,,,,,,,,,,,,,,,,,,,,,,,,,,,,,,,,,,,,,,,,,,,,,,,,,,,,,,,,,,,,,,,,,,,,,,,,,,,,,,,,,,,,,,,,,,,,,,,,,,,,,,,,,,,,,,,,,,,,,,,,,,,,,,,,,,,,,,,,,,,,,,,,,,,,,,,,,,,,,,,,,,,,,,,,,,,,,,,,,,,,,,,,,,,,,,,,,,,,,,,,,,,,,,,,,,,,,,,,,,,,,,,,,,,,,,,,,,,,,,,,,,,,,,,,,,,,,,,,,,,,,,,,,,,,,,,,,,,,,,,,,,,,,,,,,,,,,,,,,,,,,,,,,,,,,,,,,,,,,,,,,,,,,,,,,,,,,,,,,,,,,,,,,,,,,,,,,,,,,,,,,,,,,,,,,,
2023-08-21 09:24:10,104.65,-2.890825e-06,-3.799414e-09,0.0,0.2670265,0.6429438000000001,0.6429438000000001,0.0028999999351799,,0.0,0.1530773,0.0999999977648258,0.0999999977648258,1.0,80.0,0.0,0.0,0.0,1.5,4038.0,149.0,0.0,5.0,0.0,2135.0,0.0,0.0070999998413026,-0.0002999999932944,0.0283999993652105,2.4774999446235597,2.478099944610148,0.0001999999955296,0.0,3.0,-8.9331865,0.03404159,-0.018660225000000003,-45.91836,-0.03199501,-0.040710725,0.07682003,0.0093001975,0.0002934706,-0.005363941380106501,-0.005363941380106501,0.0,0.5,0.0070499998424202,0.0281499993707984,2.475624944665469,0.0129140225,-0.015840452499999998,-0.11037249999999996,-0.040770212499999944,0.38792000000000004,0.597192925,-0.647477825,4.99999988824129e-05,-0.0001499999966472,0.0,0.6878999846242366,0.5,0.0,0.035,0.005,0.0,0.0,0.1500000071246175,0.009000000427477,0.4890000232262531,0.0,0.0,0.0,0.0,0.0,0.0,0.5,-9.99999977648258e-05,0.0,-0.0004499999899417,0.001099999975413,-0.0011999999731779,-0.0031999999284744,0.0,0.0,0.0,-0.0124499997217208,0.0,0.016467725,0.0004645926,0.5,0.02,0.01,0.01,0.01,0.0,0.00706861675,-0.087828655,-0.0860812599999999,0.0,16.0,109375.0,0.0,0.0,0.0,0.0,0.0,0.0,0.0,0.0077999998256564,0.0015999999642372,0.0,0.0,0.0049999998882412,0.00034601825,0.00512546,0.010920280000000001,0.5,0.0,0.0,0.0,0.0,0.5,-0.5554932749999999,-0.033147142500000004,-0.0140513025,0.83073855,0.0,0.0001551948,6.110895e-06,6.435625e-06,7.001508e-05,0.02753216,0.02764111,0.01259092,0.08432874,0.08438404,0.1761006,4.228069e-11,4.154509e-11,0.0,1.153631e-10,2.059056e-06,2.032196e-06,5.081881e-08,0.0,0.0,0.0,0.0,0.0,0.0,0.0,0.0,,,,,,,,,,,0.0052999998815357,0.0276999993808567,2.489049944365397,69.56,6.006442740191889e-06,1.031028497048702e-06,0.56548005,0.022594125,0.0098796145,-0.8243905,6.00644284019189e-06,1.031028267048699e-06,69.42,0.15319715,0.64319715,0.9505941,0.96969525,0.341439,1.0,983.0,1494.0,1485.0,1492.0,2006.0,983.0,983.0,983.0,983.0,983.0,1995.0,1495.0,1495.0,1495.0,1495.0,1495.0,0.0,0.995,1000.0,1000.0,1000.0,1000.0,983.0,1995.0,0.0,0.0,0.0,0.0,0.0,0.0,0.0,0.0,0.3885614,0.3885614,0.014145894999999999,0.014145894999999999,0.014145894999999999,-0.089755575,-0.0034257545,-0.0034257545,0.59877925,0.59877925,-0.01190417,-0.01190417,-0.01190417,-0.19811245,-0.005486807,-0.005486807,-0.6431970499999999,-0.6431970499999999,-0.10511419999999999,-0.10511419999999999,-0.10511419999999999,0.0053639415,0.0053639415,0.0053639415,1.0,0.03277968999999995,0.03135008,0.0491374483333333,0.0,0.018544655,0.0005660376,0.041026889999999996,0.00094585875,0.0013404225000000001,,,,,,,,,,,,,,,,57.0,1.0,0.00021017493888885,0.0004895475291666,-1.732111794444445e-05,0.6753594,-0.1043735722222222,-9.79302525,0.0,0.0,50.080239444444445,1.0,1.0,6355.666666666667,3376.333333333333,0.0,3.0,120253100.0,2276.0,27.0,0.0064999998547136,6.006442735191889e-06,1.031028507048702e-06,0.6790499848220497,0.048,211.5106,-0.042499999999999996,0.0,1.0,0.0,0.0094999997876584,0.0117999997362494,0.0156999996490776,0.0032999999262392,0.0,1.0,104.52500496467096,0.20000000949949,4.9817735,0.0,1.0,1.0,4.0,0.0,24.365205,24.436425,0.20442895,0.00577812927444635,0.14099875,0.0,0.341439,99.0,0.5,-0.0905000042985192,0.1310000062221659,0.483500022965017,-0.083500003966037,-0.0555000026361084,-0.0995000047259962,0.0,0.0,0.0,1.0,104.66343173575027,0.0,0.2938748,100697.8,0.5142999885044991,-0.014138834999999999,104.6660049713681,0.0,35.0,1.0,0.5,0.7823022,1.925597,-2.513287,-1.2507115,0.0011686014,1.252325,2.5066475,0.1966397999999999,0.19990455,0.2029079,0.2016686999999999,0.1990335,0.5,0.064679028,0.017017475,-0.0517716349999999,-0.05115311,0.01803894,0.0,0.05198609,0.034127362,-0.039125799,-0.06166057,7.0,39871992.0,2.0,6.00644285019189e-06,1.031028262048699e-06,100.0,74.82465,0.1455332,0.0,224.0,2.0,4000.0,32142.0,583536.0,29.800000444054568,0.0,0.0,0.0,1612674.0,18966.0,37242.0,0.0,111.0,110.0,96.0,66.0,43.0,3.0,0.0,10.0,497.0,20146.0,199369.0,204682.0,201604.0,0.0,65.0,58.0,1.0,4563.0,0.0,0.0,31.0,141.0,11.0,138.0,,,,,,,,,,,,,,,,,,0.647477825,0.0070499998424202,0.0281499993707984,2.475624944665469,1.6626755766874861,,,682.0776663441106,100697.8,-1.031028507048702e-06,-6.006442735191889e-06,-0.647477825,0.0,0.0,0.0,,,,,,,,,,,,,,,,,,,,,,,,,,,,,,,,,,,,
2023-08-21 09:24:15,108.95,-2.890825e-06,-3.775199e-09,0.0,0.2670265,0.6278007,0.6278007,0.0030999999307096,,0.0,0.13811735,0.0399999991059303,0.0399999991059303,1.0,80.0,0.0,0.0,0.0,1.5,4214.5,153.0,0.0,5.0,0.0,3733.0,0.0,0.0069999998435378,-0.0002999999932944,0.0283999993652105,2.4795499445777383,2.47979994457215,0.0002999999932944,0.0,3.0,-8.908477999999999,-0.05357672,-0.019210945,-45.832185,0.022920865,-0.041325605,0.07940653,0.14701948,0.0009613041999999999,0.0105595587639754,0.0105595587639754,0.0,0.5,0.0070499998424202,0.0277999993786215,2.4772249446297057,0.00010448899999995,0.0016321035,-0.0469163375,0.0026095945,0.3141389,0.7557884,-0.6331192750000001,4.99999988824129e-05,-0.0001499999966472,0.0,0.6878999846242366,0.5,0.0,0.03,-0.005,0.0,0.0,0.1500000071246175,0.009000000427477,0.4890000232262531,0.0,0.0,0.0,0.0,0.0,0.0,0.5,-9.99999977648258e-05,4.99999988824129e-05,0.0,0.0007999999821186,-0.001099999975413,-0.0030499999318271,0.0,0.0,0.0,-0.009224999793805099,0.0,0.072605375,0.00038527805,0.5,0.02,0.01,0.01,0.01,0.0,0.01025235,-0.087828655,-0.0860812599999999,0.0,16.0,109375.0,0.0,0.0,0.0,0.0,0.0,0.0,0.0,0.0077999998256564,0.0015999999642372,0.0,0.0,0.0049999998882412,0.0003135847,0.004657884,0.01044123,0.5,0.0,0.0,0.0,0.0,0.5,-0.5566703500000001,-0.032859475,-0.013917445,0.829966225,0.0,0.00015853219999999998,1.289722e-05,1.3437015e-05,7.1695065e-05,0.01394933,0.01395003,0.012127175,0.083903795,0.08390872499999999,0.2472994,4.994109e-11,4.9213725e-11,0.0,1.1549384999999999e-10,6.0856405e-07,6.100098000000001e-07,3.2127305e-08,0.0,0.0,0.0,0.0,0.0,0.0,0.0,0.0,0.0,402.0,0.002500002,0.002500002,0.01236213,0.01274357,0.01099363,0.0299971,0.009388369,0.03000707,0.0050999998860061,0.0275999993830919,2.4915999443084,69.58,6.006442700191889e-06,1.0310287320487046e-06,0.5673196,0.022478245,0.010022835,-0.8231303,6.00644278019189e-06,1.0310285520487025e-06,69.4,0.13793325,0.62793325,0.95197295,0.97055105,0.19976425,1.0,983.0,1494.0,1485.0,1492.0,2006.0,983.0,983.0,983.0,983.0,983.0,1995.0,1495.0,1495.0,1495.0,1495.0,1495.0,0.0,0.995,1040.0,1040.0,1040.0,1040.0,983.0,1995.0,0.0,0.0,0.0,0.0,0.0,0.0,0.0,0.0,0.3143033,0.3143033,-0.0007383619,-0.0007383619,-0.0007383619,-0.095151075,-0.0034095749999999998,-0.0034095749999999998,0.75801895,0.75801895,0.0097305355,0.0097305355,0.0097305355,-0.1554847,-0.005496882999999999,-0.005496882999999999,-0.62793325,-0.62793325,-0.043561005,-0.043561005,-0.043561005,-0.010559559,-0.010559559,-0.010559559,1.0,0.16701046666666663,0.35240784999999997,0.12669729999999996,0.0,0.018416614999999997,0.0029581965000000003,0.04092872,0.0012027194999999998,0.0065587155,,,,,,,,,,,,,,,,,1.0,0.00024813305555549997,0.0006806382238888501,0.0018997683333333,0.6714145277777778,-0.09046479611111105,-9.79405261111111,0.0,0.0,50.249495555555555,1.0,1.0,6355.666666666667,3376.6666666666665,0.0,3.0,120257400.0,2276.0,27.0,0.0064999998547136,6.006442700191889e-06,1.0310287420487048e-06,0.6754999849013983,0.034,211.5106,-0.049,0.0,1.0,0.0,0.0094999997876584,0.0117999997362494,0.0155999996513128,0.0032999999262392,0.0,1.0,108.82500516891,0.20000000949949,4.996829,0.0,1.0,1.0,4.0,0.0,24.391165,24.45714,0.3346816,0.00618403179372565,0.15089665,0.0,0.19976425,99.0,0.5,-0.0950000045122577,0.1325000062934121,0.4832500229531427,-0.083500003966037,-0.0555000026361084,-0.0995000047259962,0.0,0.0,0.0,1.0,108.96371847489308,0.0,0.3164806,100697.6,0.5168999884463845,0.0066227790000000005,108.96550517558339,0.0,35.0,1.0,0.5,0.8826169500000001,1.8650674999999999,-2.50943875,-1.2484355,-0.0004938217499999499,1.2459175,2.505814,0.19515749999999998,0.20143565,0.20508755,0.2022007,0.19583925,0.5,0.0789049845,0.01536410349999995,-0.06490319075,-0.06016151225,0.03377936425,0.00413837,0.0728090595,0.037628617,-0.050548608,-0.07061663,7.0,37774840.0,2.0,6.00644278019189e-06,1.0310285420487024e-06,100.0,74.8238,0.1456744,0.0,224.0,,,,,,,,,,,,,118.0,118.0,96.0,64.0,38.0,3.0,0.0,10.0,494.0,20096.0,200196.0,204652.0,202292.0,0.0,65.0,66.0,1.0,4563.0,0.0,0.0,29.0,137.0,13.0,128.0,,,,,,,,,,,,,,,,,,0.6331192750000001,0.0070499998424202,0.0277999993786215,2.4772249446297057,1.6418448169435738,,,678.6454515049962,100697.6,-1.0310287420487048e-06,-6.006442700191889e-06,-0.6331192750000001,0.0,0.0,0.0,,,,,,,,,,,,,,,,,,,,,,,,,,,,,,,,,,,,
2023-08-21 09:24:20,113.95,-2.890825e-06,-3.816467499999999e-09,0.0,0.2670265,0.5863011,0.5863011,0.0035499999206513,,0.0,0.09791093000000001,0.0149999996647238,0.0149999996647238,1.0,80.0,0.0,0.0,0.0,1.5,4435.5,158.0,0.0,5.0,0.0,5728.5,0.0,0.0074999998323619,-0.0002999999932944,0.0283999993652105,2.481699944529682,2.4819499445240942,0.0001999999955296,0.0,3.0,-9.432755499999999,-0.012496418000000002,-0.019664065,-45.894525,0.017319685,-0.04114143,0.084637115,-0.057297959999999995,0.0011028897,0.011327269746815749,0.011327269746815749,0.0,0.5,0.007274999837390999,0.0277499993797391,2.4793749445816498,0.0062672178499999995,-0.00687128075,-0.02156926,0.0183408725,0.255167575,0.81048165,-0.5912284999999999,4.99999988824129e-05,-0.0001499999966472,0.0,0.6878999846242366,0.5,0.0,0.03,-0.005,0.0,0.0,0.1500000071246175,0.009000000427477,0.4890000232262531,0.0,0.0,0.0,0.0,0.0,0.0,0.5,-4.99999988824129e-05,-4.99999988824129e-05,0.0,0.0004999999888241,-0.000249999994412,-0.0022499999497085,0.0,0.0,0.0,-0.0068999998457729,0.0,0.105301625,0.0003077444,0.5,0.02,0.0,0.01,0.0,0.0,0.0121456175,-0.087828655,-0.0860812599999999,0.0,16.0,109375.0,0.0,0.0,0.0,0.0,0.0,0.0,0.0,0.0073999998345971,0.0015999999642372,0.0,0.0,0.0049999998882412,0.00032566750000000003,0.0040669455,0.009225765,0.5,0.0,0.0,0.0,0.0,0.5,-0.5582332,-0.0329556875,-0.01384372,0.8289038,0.0,0.00016181605,1.7983395e-05,1.870367e-05,7.337083e-05,0.013419995,0.013440045000000001,0.010864405,0.08179576,0.081801175,0.2657249,5.06428e-11,4.989979e-11,0.0,1.1521965000000001e-10,5.644872999999999e-07,5.729425000000001e-07,2.086861e-08,0.0,0.0,0.0,0.0,0.0,0.0,0.0,0.0,0.0,410.0,0.002500002,0.002500002,0.01233623,0.01249193,0.0109937,0.01349236,0.008762877,0.01377037,0.0046999998949468,0.0278999993763864,2.493849944258108,69.625,6.006442670191888e-06,1.0310286820487042e-06,0.56894135,0.02245459,0.010475064999999999,-0.82200115,6.006442720191889e-06,1.031028662048704e-06,69.36,0.09649145,0.5864914,0.9519826499999999,0.9705571,0.2017282,1.0,983.0,1494.0,1485.0,1492.0,2006.0,983.0,983.0,983.0,983.0,983.0,1995.0,1495.0,1495.0,1495.0,1495.0,1495.0,0.0,0.995,1040.0,1040.0,1040.0,1040.0,983.0,1995.0,0.0,0.0,0.0,0.0,0.0,0.0,0.0,0.0,0.25802464999999997,0.25802464999999997,0.011900830000000001,0.011900830000000001,0.011900830000000001,-0.04930903,-0.0033888325,-0.0033888334999999997,0.81679525,0.81679525,-0.0002210292,-0.0002210292,-0.0002210292,-0.18809215,-0.005509699,-0.0055096995,-0.5864914,-0.5864914,-0.019790925,-0.019790925,-0.019790925,-0.01132727,-0.01132727,-0.01132727,1.0,0.17955201666666665,0.3757142,0.12547403999999995,0.0,0.01965426,0.0030594725000000003,0.04099805,0.001127494,0.006082128,,,,,,,,,,,,,,,,,1.0,-0.00011070622222218887,0.0005464300833333,-0.0009632097611111,0.6707651277777777,-0.08499370905555556,-9.794477055555554,0.0,0.0,50.43730833333333,1.0,1.0,6355.666666666667,3376.6666666666665,0.0,3.0,120262400.0,2276.0,27.0,0.0064999998547136,6.006442670191888e-06,1.0310286920487042e-06,0.6732999849505721,0.038,211.5106,-0.033,0.0,1.0,0.0,0.0094999997876584,0.0117999997362494,0.0156999996490776,0.003399999924004,0.0,1.0,113.82500540639724,0.20000000949949,4.9979875,0.0,1.0,1.0,4.0,0.0,24.390225,24.45753,0.33503865,0.0066491018158153,0.1622402,0.0,0.2017282,99.0,0.5,-0.09425000447663465,0.1315000062459146,0.4820000228937709,-0.083500003966037,-0.0555000026361084,-0.0995000047259962,0.0,0.0,0.0,1.0,113.96339721227012,0.0,0.36027925,100697.1,0.5188999884016811,0.00707977,113.9650054130469,0.0,35.0,1.0,0.5,0.9246608765,1.84968075,-2.50700725,-1.24591875,-0.000918043625,1.2434465000000001,2.5034685000000003,0.1936566,0.20232465,0.2077854,0.2034447,0.19233175,0.5,0.06589159,0.0068834314999999,-0.0755135135,-0.0697884315,0.014880765,0.00743154199999995,0.0722620864999999,0.038668127,-0.056630722,-0.077379534,7.0,37774840.0,2.0,6.006442720191889e-06,1.031028652048704e-06,100.0,74.82255,0.1044215,0.0,224.0,0.0,4000.0,2611.0,583536.0,29.20000043511387,0.0,0.0,0.0,1788381.0,20889.0,41137.0,0.0,116.0,117.0,87.0,66.0,39.0,3.0,0.0,10.0,494.0,20096.0,200262.0,204581.0,202345.0,0.0,65.0,60.0,1.0,4563.0,0.0,0.0,30.0,134.0,13.0,122.0,,,,,,,,,,,,,,,,,,0.5912284999999999,0.007274999837390999,0.0277499993797391,2.4793749445816498,1.644227062776649,,,676.0257153843804,100697.1,-1.0310286920487042e-06,-6.006442670191888e-06,-0.5912284999999999,0.0,0.0,0.0,,,,,,,,,,,,,,,,,,,,,,,,,,,,,,,,,,,,
2023-08-21 09:24:25,118.95,-2.890825e-06,-3.820787e-09,0.0,0.2670265,0.5820546,0.5820546,0.0034999999217689,,0.0,0.09450742,0.0099999997764825,0.0099999997764825,1.0,80.0,0.0,0.0,0.0,1.5,4657.5,163.0,0.0,5.0,0.0,7725.0,0.0,0.0075999998301267,-0.0002999999932944,0.0283999993652105,2.4833499444928018,2.4835999444872137,0.0001999999955296,0.0,3.0,-9.588529,0.03977411,-0.01962504,-45.89577,-0.0138849215,-0.040789555000000005,0.08557308,0.055748559999999996,0.00042419755,0.0043601989025419,0.0043601989025419,0.0,0.5,0.0074499998334795,0.0279499993752688,2.481149944541976,0.013851011,-0.01448035199999995,-0.015189194999999999,-0.0006511537625,0.242237775,0.767824525,-0.5828534750000001,7.499999832361935e-05,-0.0001499999966472,-4.99999988824129e-05,0.6878999846242366,0.5,0.0,0.03,-0.005,0.0,0.0,0.1500000071246175,0.009000000427477,0.4890000232262531,0.0,0.0,0.0,0.0,0.0,0.0,0.5,4.99999988824129e-05,0.0,0.0002999999932944,0.0004999999888241,0.0001999999955296,-0.0021499999519437,0.0,0.0,0.0,-0.0057249998720362,0.0,0.16195454999999997,0.0004475665,0.5,0.025,0.0,0.01,0.0,0.0,0.011694159999999999,-0.087828655,-0.0860812599999999,0.0,16.0,109375.0,0.0,0.0,0.0,0.0,0.0,0.0,0.0,0.0073999998345971,0.0015999999642372,0.0,0.0,0.0049999998882412,0.0002973031,0.004116420500000001,0.008291739,0.5,0.0,0.0,0.0,0.0,0.5,-0.55950645,-0.0331216175,-0.0137973925,0.82804575,0.0,0.0001644851,1.6538105e-05,1.7168475e-05,7.4745045e-05,0.01322476,0.013234485,0.009984847,0.08082471499999999,0.080832515,0.26572235,4.4596100000000004e-11,4.4003189999999996e-11,0.0,1.145158e-10,5.166676e-07,5.282291499999999e-07,1.539383e-08,0.0,0.0,0.0,0.0,0.0,0.0,0.0,0.0,0.0,403.0,0.002500002,0.002500002,0.0123559,0.01247105,0.01099379,0.01349252,0.008763202,0.01377075,0.0043999999016523,0.0276999993808567,2.4949499442335217,69.62,6.0064426601918885e-06,1.0310285420487024e-06,0.5697416,0.022092849999999997,0.010696595,-0.8214481,6.006442710191889e-06,1.0310285820487028e-06,69.36,0.09209516,0.58209515,0.9519745,0.970552,0.2075147,1.0,983.0,1494.0,1485.0,1494.0,2006.0,983.0,983.0,983.0,983.0,983.0,1995.0,1495.0,1495.0,1495.0,1495.0,1495.0,0.0,0.995,1040.0,1040.0,1040.0,1040.0,983.0,1995.0,0.0,0.0,0.0,0.0,0.0,0.0,0.0,0.0,0.24741505,0.24741505,0.02070838,0.02070838,0.02070838,-0.133628255,-0.0033731129999999996,-0.0033731129999999996,0.77163135,0.77163135,-0.010515545000000001,-0.010515545000000001,-0.010515545000000001,-0.21458185,-0.005519340500000001,-0.005519340500000001,-0.58209515,-0.58209515,-0.017609964999999998,-0.017609964999999998,-0.017609964999999998,-0.004360199,-0.004360199,-0.004360199,1.0,0.1931053833333333,0.42241159999999994,0.1268451166666666,0.0,0.01997545,0.003347038,0.041034275,0.001260484,0.005760239,,,,,,,,,,,,,,,,,1.0,0.0002555211055555,0.0004529019105555,0.0005209028444444,0.6782249277777779,-0.0940195355555555,-9.793935666666666,0.0,0.0,50.57508055555556,1.0,1.0,6356.0,3376.6666666666665,0.0,3.0,120267400.0,2276.0,27.0,0.0064999998547136,6.0064426601918885e-06,1.0310285420487024e-06,0.6726999849639831,0.051,211.5106,-0.049,0.0,1.0,0.0,0.0094999997876584,0.0117999997362494,0.0158999996446073,0.003399999924004,0.0,1.0,118.8250056438845,0.20000000949949,4.998692500000001,0.0,1.0,1.0,4.0,0.0,24.387214999999998,24.45645,0.3365423,0.00711401783789765,0.1735795,0.0,0.2075147,99.0,0.5,-0.094500004488509,0.1315000062459146,0.4812500228581478,-0.083500003966037,-0.0555000026361084,-0.0995000047259962,0.0,0.0,0.0,1.0,118.96382344964525,0.0,0.3532149,100697.2,0.5203999883681535,-0.00044963646500000004,118.96500565053414,0.0,35.0,1.0,0.5,0.7408382675,1.834222,-2.50926975,-1.2454545,0.0008674766274999999,1.24387425,2.5025577500000002,0.19244207499999993,0.201247475,0.2078903,0.20380175,0.1937326499999999,0.5,0.0813243935,0.0199293745,-0.062699114,-0.0540428625,0.0373535765,0.014049954,0.08146876850000001,0.0502141795,-0.03880214,-0.06268369,7.0,37774840.0,2.0,6.006442710191889e-06,1.031028592048703e-06,100.0,74.82207,0.09438702,0.0,224.0,,,,,,,,,,,,,118.0,117.0,83.0,63.0,45.0,3.0,0.0,10.0,494.0,20096.0,199690.0,204357.0,202140.0,0.0,65.0,62.0,1.0,4563.0,0.0,0.0,30.0,134.0,13.0,129.0,,,,,,,,,,,,,,,,,,0.5828534750000001,0.0074499998334795,0.0279499993752688,2.481149944541976,1.6572447577097433,,,674.07613599243,100697.2,-1.0310285420487024e-06,-6.0064426601918885e-06,-0.5828534750000001,0.0,0.0,0.0,,,,,,,,,,,,,,,,,,,,,,,,,,,,,,,,,,,,
2023-08-21 09:24:30,123.95,0.10829565,0.0001533292,0.096186905,0.2670265,0.5451974500000001,0.5197722,0.0035499999206513,,0.0,0.032591275,0.24499999452382315,0.00499999988824125,1.0,80.0,0.0,0.0,0.0,1.5,4879.0,168.0,0.0,5.0,0.0,9721.5,0.0,0.0076999998278915,-0.002549999943003,0.0288999993540346,2.4837999444827434,2.4836999444849788,0.0001999999955296,0.0,3.0,-9.5904545,0.023273215,0.056700385,-46.427705,-0.18833085,-0.053034765,0.81335395,-0.62214615,0.01303203,0.2934948434398788,0.13695814693874675,0.096560375,0.5,0.0076249998295679,0.028524999362416502,2.481274944539182,0.02491473,-0.00554983025,-0.0069201105,-0.0194686375,0.271414225,0.695683675,-0.5160428749999999,9.99999977648258e-05,-0.0001999999955296,-4.99999988824129e-05,0.6878999846242366,0.5,0.0,0.03,-0.005,0.0,0.0,0.1500000071246175,0.009000000427477,0.4890000232262531,0.0,0.0,0.0,0.0,0.0,0.0,0.5,-4.99999988824129e-05,-9.99999977648258e-05,4.99999988824129e-05,0.0,0.0006499999854713,-0.0014249999681486998,0.0,0.0,0.0,-0.0097999997809529,0.0,0.21330169999999998,0.0003753012999999,0.5,0.02,0.0,0.0,0.01,0.0,0.01101022999999995,-0.087828655,-0.0860812599999999,0.0,16.0,109375.0,0.0,0.0,0.0,0.0,0.0,0.0,0.0,0.0067999998480081,0.0015999999642372,0.0,0.0,0.0049999998882412,0.00044843245,0.0053162115,0.012697710000000001,0.5,0.0,0.0,0.0,0.0,0.5,-0.559311675,-0.033651062499999995,-0.013853497499999999,0.8280226,0.0,0.00016662865,1.4570240000000001e-05,1.514398e-05,7.557268e-05,0.0129828,0.012994435,0.009408897,0.080187725,0.08019409999999999,0.26233955,4.0913315e-11,4.043796e-11,0.0,1.1355615000000001e-10,4.864462e-07,4.993473000000001e-07,1.2362975e-08,0.0,0.0,0.0,0.0,0.0,0.0,0.0,0.0,0.0,410.0,0.002500002,0.002500002,0.01230823,0.01248587,0.01099384,0.0134925,0.008763721,0.01377182,0.004149999907240199,0.0281999993696808,2.4939499442558732,69.625,6.006442720191889e-06,1.0310283220486995e-06,0.56904595,0.02238737,0.010430735,-0.8219019000000001,6.006442725191889e-06,1.0310284620487015e-06,69.29,0.029432464999999998,0.51943245,0.9490397500000001,0.9687298,0.029964195,1.0,1643.5,1494.0,1486.0,1495.0,2006.0,983.0,983.0,983.0,983.0,983.0,1995.0,1495.0,1495.0,1495.0,1495.0,1495.0,0.0,0.995,1098.0,1174.5,1291.0,1453.5,1643.5,1995.0,0.0,0.0,0.0,0.0,0.0,0.0,0.0,0.0,0.2718134,0.26679379999999997,0.0021429225,0.007104775000000001,0.01791927,-0.0008350109,-0.0033690525,-0.0033683255,0.7153445,0.7051298500000001,0.002483906,0.013721955000000001,0.008684055999999999,-0.0041715395,-0.2998998,-0.24327495,-0.5455843499999999,-0.51943245,-0.1551442,-0.251855,-0.010855765,-0.05665274,-0.29349485,-0.13695815,1.0,1.5661055,1.598495,1.6207455,0.0,0.020621340000000002,0.0078471575,0.04147692,0.0089214225,0.010578285,,,,,,,,,,,,,,,,28.0,1.0,-0.0022499553249999502,0.0007003105472222,-0.016054296666666648,0.3005201192777778,0.0515396448333333,-9.829625111111113,0.0,0.0,50.63635,1.0,1.0,6356.0,3376.6666666666665,0.0,3.0,120272400.0,2276.0,27.0,0.0064999998547136,6.006442720191889e-06,1.0310283220486995e-06,0.6748999849148093,0.05,211.5106,-0.035,0.0,1.0,0.0,0.0094999997876584,0.0115999997407197,0.0157999996468424,0.0032999999262392,0.0,1.0,123.82500588137177,0.20000000949949,4.995369,0.0,1.0,1.0,4.0,0.0,24.283595,24.412025,4.5783795000000005,0.00850318090387935,0.2073954,0.0,0.029964195,99.0,0.5,-0.1465000069583764,0.08025000381167036,0.5832500277028877,-0.083500003966037,-0.0555000026361084,-0.0995000047259962,0.0,0.0,0.0,1.0,123.9636474370219,0.0,0.3574535,100697.15,0.5209999883547425,0.0450143,123.96550588804516,0.0,35.0,1.0,0.5,0.4950487249999999,1.80963175,-2.5109297500000003,-1.248248,-0.00132493392499995,1.2404465,2.5022995000000003,0.19657227499999996,0.202961575,0.204054475,0.20045825,0.1912852,0.5,0.0609409425,-0.01176056749999995,-0.07817152699999999,-0.0605856309999999,0.036206550500000004,-0.000692585,0.0720623005,0.03591779199999995,-0.0568606299999999,-0.079026932,7.0,37758328.0,2.0,6.006442720191889e-06,1.0310284720487015e-06,100.0,74.82184,0.02279468,0.0,224.0,1.0,4000.0,3003.0,583536.0,31.20000046491619,0.0,0.0,0.0,1963748.0,22815.0,45035.0,0.0,120.0,120.0,80.0,63.0,47.0,3.0,0.0,10.0,496.0,20134.0,199662.0,204396.0,201866.0,0.0,66.0,57.0,1.0,4563.0,0.0,0.0,31.0,133.0,13.0,128.0,,,,,,,,,,,,,,,,,,0.5160428749999999,0.0076249998295679,0.028524999362416502,2.481274944539182,1.703936669395475,,,673.307872380836,100697.15,-1.0310283220486995e-06,-6.006442720191889e-06,-0.5160428749999999,0.0,0.0,0.0,,,,,,,,,,,,,,,,,,,,,,,,,,,,,,,,,,,,
2023-08-21 09:24:35,128.95,0.28576599999999996,0.0003245324,0.2850166,0.2670265,2.3270215,2.351673,0.024949999442323997,,0.0,1.862581,0.3599999919533729,0.3699999917298555,1.0,80.0,0.0,0.0,0.0,1.5,5099.0,173.0,0.0,5.0,0.0,11717.5,-0.0044999998994171,-0.0031999999284744,-0.0256999994255602,-0.02669999940320845,2.483099944498389,2.4450999453477555,0.0003999999910593,9.99999977648258e-05,3.0,0.25762975,0.36021245,0.073758475,1.0419222,0.09071952,-0.08539605,16.20719,0.66060025,0.3178876,-0.034145524236788,-0.05729722871930705,0.2850193,0.5,-0.0038999999128281502,-0.0264249994093552,2.44332494538743,-0.0786325675,0.02517928,-0.37507107500000003,-0.39674242499999995,0.32119030000000004,0.6945243249999999,-2.35518725,9.99999977648258e-05,-0.0001999999955296,-0.0001499999966472,0.6878999846242366,0.5,0.0,0.03,-0.005,0.0,0.0,0.1500000071246175,0.009000000427477,0.4890000232262531,0.0,0.0,0.0,0.0,0.0,0.0,0.5,-4.99999988824129e-05,0.0,-0.0001499999966472,-2.499999944120645e-05,0.000849999981001,0.0008249999815598,0.0,0.0,0.0,-0.0230249994853511,0.0,0.267069825,0.0006557456999999,0.5,0.03,0.01,0.0,0.025,0.0,0.01041719999999995,-0.087828655,-0.0860812599999999,0.0,16.0,107327.0,0.0,0.0,0.0,0.0,0.0,0.0,0.0,0.02429999945685265,0.0015999999642372,0.0,0.0,0.0049999998882412,0.00069384175,0.004451784,0.0123002,0.5,0.0,0.0,0.0,0.0,0.5,-0.52765675,0.0119835225,0.00244472175,0.8464069750000001,0.0,0.00017676035,1.3335065000000001e-05,1.3615355e-05,6.7696045e-05,0.01147785,0.011409309999999999,0.008126969500000001,0.07204210999999999,0.072043845,0.12942019999999999,3.905233e-11,3.8752125e-11,0.0,1.123091e-10,4.7008099999999996e-07,4.840203e-07,1.012501e-08,0.0,0.0,0.0,0.0,0.0,0.0,0.0,0.0,0.0,412.0,0.002500002,0.002500002,0.01226595,0.0124629,0.01099391,0.01349258,0.008763956,0.01377255,-0.0058999998681247,-0.027199999392032548,2.456699945088476,71.765,6.00644279019189e-06,1.0310282920486994e-06,0.5420735000000001,-0.02309727,-0.0084122265,-0.8399909,6.00644278519189e-06,1.0310284320487012e-06,71.13,1.862729,2.352729,0.9471163,0.96753405,0.02763175,1.0,1657.0,1494.0,1486.0,1495.0,2006.0,983.0,983.0,983.0,983.0,983.0,1995.0,1495.0,1495.0,1495.0,1495.0,1495.0,0.0,0.995,1558.5,1295.0,1278.0,1695.0,1657.0,1995.0,0.0,0.0,0.0,0.0,0.0,0.0,0.0,0.0,0.2728393,0.3212294,4.241648e-06,-0.048385845,-0.07631906,-4.2553245e-06,-0.23419985,-0.25334185,0.71816875,0.6912650499999999,1.2658675e-05,0.026913945,0.014695125,-1.2699485e-05,-0.38042465000000003,-0.36779445,-2.3279810000000003,-2.352729,-0.38410555,-0.3659846,-0.37466895,0.0018587875,0.034145524999999996,0.057297230000000005,1.0,2.5991215,6.306597999999999,6.280397333333333,0.0,0.0050021514999999996,0.0052327120000000005,0.006650985,0.0068581995,0.21374300000000002,,,,,,,,,,,,,,,,62.0,1.0,0.0074861379666665995,0.0015668720277777501,0.01051801099999995,-0.26601481944444444,0.1226003253333333,-9.800432444444443,0.0,0.0,50.738057222222224,1.0,1.0,6356.0,3376.6666666666665,0.0,3.0,120277400.0,2276.0,27.0,0.0064999998547136,6.00644280019189e-06,1.0310282920486994e-06,0.6943999844789503,0.081,60.55469,-0.362,0.0,1.0,0.0,0.0094999997876584,0.0111999997496604,0.0152999996580183,0.0028999999351799,0.0,1.0,128.825006118859,0.20000000949949,4.9922465,0.0,1.0,1.0,4.0,0.0,24.061765,24.37568,11.38053,0.02409172614429545,0.5829403,0.0,0.02763175,99.0,0.5,-0.16400000778958174,-0.0162500007718335,0.6692500317876684,-0.083500003966037,-0.0555000026361084,-0.0995000047259962,0.0,0.0,0.0,1.0,128.9633789243988,0.0,2.5035875,100673.15,0.5222999883256851,0.35524730000000004,128.96500612550864,0.0,35.0,1.0,0.5,-1.80247775,0.798920325,-2.3560990000000004,-1.46895575,-0.4402828,1.10974125,2.7721625000000003,0.38424995,0.50484135,0.08099065999999999,0.008869805,0.0352648425,0.5,0.114097385,0.026774255,-0.0639688775,-0.09891530074999999,0.0862778825,0.04840592,0.10268531249999996,0.0989625625,-0.08074273,-0.053539762000000005,7.0,37758328.0,2.0,6.006442830191891e-06,1.0310284320487012e-06,100.0,74.82497,1.680992,0.0,224.0,,,,,,,,,,,,,151.0,153.0,92.0,68.0,43.0,3.0,0.0,10.0,495.0,20125.0,200326.0,204678.0,202477.0,0.0,67.0,58.0,1.0,4563.0,0.0,0.0,30.0,126.0,10.0,120.0,1.0,2.0,300.0,0.0,0.2938497,0.6882943,-2.599307,,,,,,,,,,,2.35518725,-0.0038999999128281502,-0.0264249994093552,2.44332494538743,1.5501283955753218,,,671.4656045864762,100673.15,-1.0310282920486994e-06,-6.00644280019189e-06,-2.35518725,0.0,0.0,0.0,,,,,,,,,,,,,,,,,,,,,,,,,,,,,,,,,,,,
2023-08-21 09:24:40,133.95,0.29441875,0.00036634505000000003,0.29407300000000003,0.2670265,4.630999,4.595215,0.045449998984113296,,0.0,4.105963,0.5899999868124722,0.5899999868124722,1.0,80.0,0.0,0.0,0.0,1.5,5331.5,178.0,0.0,5.0,0.0,13678.5,-0.00699999984353775,-0.00584999986924225,-0.027849999377503952,-0.02719999939203255,2.49969994412735,2.4761999446526164,0.0003999999910593,9.99999977648258e-05,3.0,0.502470165,0.022154436,0.07092158000000001,-3.1078444999999997,-0.082405955,-0.08301787999999999,10.55545,-0.0262075,0.32601345,0.01207095973019295,0.025699614425568798,0.2941298,0.5,-0.00662499985191965,-0.0268499993998557,2.477424944625236,-0.01611140975,0.00442784675,-0.590025575,-0.559755625,0.300720225,0.736504975,-4.591112750000001,9.99999977648258e-05,-0.0001999999955296,-0.0001499999966472,0.6878999846242366,0.5,0.0,0.03,-0.005,0.0140999996848404,0.0151999996602535,0.1415000067208891,0.0080000003799796,0.4810000228462734,0.0030000001424923,-0.0075000003562308,-0.0080000003799796,0.0086082395,-0.0059517154999999,0.0,0.5,-0.0001499999966472,-0.0001499999966472,-0.0006999999843537,0.0,0.0003499999921768,4.99999988824129e-05,0.0,0.0,0.0,0.0,0.0,0.2972355,0.0007512269,0.5,0.035,0.0,0.0,0.0,0.0,0.010784515,-0.087828655,-0.0860812599999999,0.0,16.0,107327.0,0.0,0.0,0.0,0.0,0.0,0.0,0.0,0.04609999896958465,0.0015999999642372,0.0,0.0,0.0049999998882412,0.0014018225,0.005738995,0.009526502999999999,0.5,0.0,0.0,0.0,0.0,0.5,0.5572814749999999,-0.0138489175,-0.00254689,-0.8302244750000001,0.0,0.009781429500000001,1.136447e-05,1.4076489999999999e-05,0.004282675499999999,0.018736005,0.01580403,0.0077996665,0.07038713499999999,0.0699169,0.11126685,4.3810645e-11,4.34087e-11,0.0,1.1798945e-10,3.6278655e-07,4.4283365e-07,8.215705000000001e-09,0.0012671664999999999,7.462756e-05,0.0012689625,0.0011633630000000002,0.0012383345,0.0012684885,1.2200115,1.0439867,0.0,410.0,0.002500002,0.002500002,0.01234073,0.01248211,0.01099396,0.01349267,0.009390527,0.0137731,-0.008599999807775,-0.0277499993797391,2.470299944784492,73.815,6.006442760191889e-06,1.0310284520487017e-06,0.5518832,-0.024620095,-0.0070429405,-0.83359345,6.00644277019189e-06,1.031028512048702e-06,73.37,4.106763,4.596762999999999,0.94499415,0.9662134499999999,0.028444405,1.0,1688.0,1494.0,1486.0,1495.0,2006.0,983.0,983.0,983.0,983.0,983.0,1995.0,1495.0,1495.0,1495.0,1495.0,1495.0,0.0,0.995,1573.0,1299.5,1287.0,1705.0,1688.0,1995.0,0.0,0.0,0.0,0.0,0.0,0.0,0.0,0.0,0.2728426,0.30134095,6.7843965e-09,-0.02849832,-0.028239004999999998,-6.806271e-09,-0.27664505,-0.2885522,0.7181786,0.730871,2.024722e-08,-0.012692405,-0.0008908619999999999,-2.03125e-08,-0.41166615,-0.39389085,-4.632428,-4.596762999999999,-0.5665187,-0.5940674,-0.5953839,-0.011510425000000001,-0.01207096,-0.025699615,1.0,2.864733,6.269571333333333,6.580214166666667,0.0,0.0060728959999999995,0.005896048500000001,0.004025425500000001,0.007154876,0.13925785000000002,,,,,,,,,,,,,,,,,1.0,-0.0051786294444444,0.0033071894722221497,-0.0031131624999999503,-0.26778119166666664,0.13072647166666668,-9.838317055555557,0.0,0.0,50.86005361111111,1.0,1.0,6356.0,3376.333333333333,0.0,3.0,120282400.0,2276.0,27.0,0.0064999998547136,6.006442760191889e-06,1.0310284420487012e-06,0.71469998402521,0.06500001,60.55469,-0.499,0.0,1.0,0.0,0.0094999997876584,0.0110999997518956,0.014899999666959,0.0030999999307096,0.0,1.0,133.82500635634625,0.20000000949949,4.99411,0.0,1.0,1.0,4.0,0.0,24.011295,24.346535,11.75293,0.0401438319067295,0.96875675,0.0,0.028444405,99.0,0.5,-0.16875000801519463,-0.02375000112806435,0.677250032167648,-0.083500003966037,-0.0555000026361084,-0.0995000047259962,0.0,0.0,0.0,1.0,133.96352666177464,0.0,4.5465824999999995,100650.4,0.5235999882966279,0.55249905,133.9650063629959,0.0,35.0,1.0,0.5,-1.85454775,0.7187380999999999,-2.3478315,-1.490275,-0.467071525,1.13209025,2.82853925,0.41534885,0.49373975,0.052873105,0.00453483425,0.033350795,0.5,0.060269945,0.03480258,-0.024260075,-0.03593461275,0.044298229999999994,0.009699132256,0.061344607499999995,0.0689484425,-0.0436199,-0.055037855,7.0,37758328.0,2.0,6.00644277019189e-06,1.031028512048702e-06,100.0,74.82339,3.836846,0.0,224.0,0.0,4000.0,2608.0,583536.0,36.10000053793188,0.0,0.0,0.0,2138954.0,24745.0,48948.0,0.0,151.0,147.0,92.0,70.0,40.0,3.0,0.0,10.0,496.0,20134.0,200364.0,204581.0,202453.0,0.0,67.0,58.0,1.0,4563.0,0.0,0.0,31.0,131.0,7.0,118.0,1.0,3.0,300.0,0.0,0.3122368,0.7434393,-4.73419,,,,,,,,,,,4.591112750000001,-0.00662499985191965,-0.0268499993998557,2.477424944625236,1.6269069687552309,,,669.647454503501,100650.4,-1.0310284420487012e-06,-6.006442760191889e-06,-4.591112750000001,0.0,0.0,0.0,,,,,,,,,,,,,,,,,,,,,,,,,,,,,,,,,,,,
2023-08-21 09:24:45,138.95,0.2955451,0.00030769405,0.29588875000000003,0.2670265,7.4645589999999995,7.448042,0.0741999983415007,,0.0,6.961849,0.5849999869242309,0.5799999870359897,1.0,80.0,0.0,0.0,0.0,1.5,5565.0,183.0,0.0,5.0,0.0,15613.0,-0.0013499999698251,-0.00154999996535475,-0.0253499994333833,-0.025999999418854648,2.49969994412735,2.4839499444793907,0.0002999999932944,0.0,3.0,1.7971555,-0.338816,0.089856735,1.148882,0.1608549,-0.08817818999999999,7.1489139999999995,0.15940125,0.34164079999999997,0.02391707446541165,0.0119714712324167,0.29586880000000004,0.5,-0.00232499994803215,-0.0252749994350597,2.4851249444531276,0.02662238249999995,-0.0013643424999999001,-0.573744975,-0.556406325,0.23705112499999997,0.7479108999999999,-7.431438249999999,9.99999977648258e-05,-0.0001999999955296,-0.0001499999966472,0.6878999846242366,0.5,0.0,0.03,-0.005,0.0150499996636062,0.0163999996334314,0.1410000066971404,0.0080000003799796,0.4810000228462734,0.0040000001899898,-0.0075000003562308,-0.0080000003799796,-0.004625395,0.0257307349999999,0.0,0.5,4.99999988824129e-05,-9.99999977648258e-05,-0.0013499999698251,0.0,0.0002249999949708,0.000849999981001,0.0005000000237487,0.0,0.0,0.0,0.0,0.34133215,0.001559126,0.5,0.05,0.0,0.005,0.005,0.0,0.0102177125,-0.087828655,-0.0860812599999999,0.0,16.0,107327.0,0.0,0.0,0.0,0.0,0.0,0.0,0.0,0.07469999833032485,0.0015999999642372,0.0,0.0,0.0049999998882412,0.0016657825,0.0045685,0.01125101,0.5,0.0,0.0,0.0,0.0,0.5,0.562897875,-0.010519957499999951,-0.0056854377499999005,-0.826486775,0.0,0.0092454575,1.1129565e-05,1.252773e-05,0.0042273245,0.011496010000000001,0.011629835,0.007454242999999999,0.06903419499999999,0.06890025,0.11030975,5.04483e-11,4.9894655e-11,0.0,1.2732549999999998e-10,3.2356875e-07,4.3751945e-07,6.948316e-09,0.001252302,3.250766e-05,0.001255076,0.001111796,0.001217278,0.0012546660000000002,0.5205329000000001,0.44696685,0.0,410.0,0.002500002,0.002500002,0.01229929,0.01249434,0.01099414,0.01349284,0.00876517,0.01377426,-0.0044999998994171,-0.0262499994132667,2.4856999444402748,76.68999,6.006442685191889e-06,1.031028497048702e-06,0.56319775,-0.02093809,-0.009989142,-0.8260701,6.006442700191889e-06,1.031028522048702e-06,76.225,6.959459,7.449459,0.94335605,0.96519305,0.029073235000000003,1.0,1688.0,1494.0,1486.0,1495.0,2006.0,983.0,983.0,983.0,983.0,983.0,1995.0,1495.0,1495.0,1495.0,1495.0,1495.0,0.0,0.995,1571.5,1285.0,1291.5,1726.0,1688.0,1995.0,0.0,0.0,0.0,0.0,0.0,0.0,0.0,0.0,0.2728426,0.23397855,3.784371e-10,0.038864065,0.019772434999999998,0.0,-0.18016695,-0.18477785,0.7181786,0.7386167,1.1294e-09,-0.020438144999999998,-0.024518085,0.0,-0.4027635,-0.39375515,-7.465982,-7.449458,-0.56719195,-0.5901458500000001,-0.5827849,-0.0035052105,-0.023917075,-0.0119714715,1.0,3.8759565,6.685305499999999,8.479743166666665,0.0,0.005774584,0.0054629529999999996,0.003142723,0.0063618965,0.1008655,,,,,,,,,,,,,,,,,1.0,-0.0043998071111111,0.0035139955333333,0.0021847323055555,-0.2526775394444444,0.10236666416666665,-9.840724444444447,0.0,0.0,50.92574111111111,1.0,1.0,6355.666666666667,3376.6666666666665,0.0,3.0,120287400.0,2276.0,27.0,0.0064999998547136,6.006442700191889e-06,1.0310284920487018e-06,0.739399983473122,0.063,60.55469,-0.453,0.0,1.0,0.0,0.0094999997876584,0.0109999997541308,0.0146999996714293,0.0030999999307096,0.0,1.0,138.8250065938335,0.20000000949949,4.991944500000001,0.0,1.0,1.0,4.0,0.0,23.9765,24.321649999999998,11.86104,0.05660884768877575,1.3637955,0.0,0.029073235000000003,99.0,0.5,-0.16975000806269208,-0.021750001033069448,0.6752500320726531,-0.083500003966037,-0.0555000026361084,-0.0995000047259962,0.0,0.0,0.0,1.0,138.96404489914954,0.0,7.424578,100618.25,0.524699988272041,0.5314495,138.96500660048315,0.0,35.0,1.0,0.5,-1.840481,0.711979625,-2.32984975,-1.4768572500000001,-0.4575563,1.147108,2.8509735000000003,0.4162004,0.49686135,0.0509600375,0.004261019,0.0322197375,0.5,0.043370425000000004,0.03615644,-0.02306432,-0.07539418499999995,-0.0011019032499999999,-0.01041998749999995,0.03727265,0.0684318475,-0.0083197025,-0.0616539525,7.0,37758328.0,2.0,6.006442690191889e-06,1.031028502048702e-06,100.0,74.82102,6.72877,0.0,224.0,,,,,,,,,,,,,157.0,155.0,91.0,65.0,42.0,3.0,0.0,10.0,496.0,20134.0,199999.0,204340.0,202115.0,0.0,67.0,59.0,1.0,4563.0,0.0,0.0,28.0,141.0,8.0,129.0,1.0,4.0,300.0,0.0,0.2729691,0.7525064,-6.848939,,,,,,,,,,,7.431438249999999,-0.00232499994803215,-0.0252749994350597,2.4851249444531276,1.4508700541003396,,,668.0224942715454,100618.25,-1.0310284920487018e-06,-6.006442700191889e-06,-7.431438249999999,0.0,0.0,0.0,,,,,,,,,,,,,,,,,,,,,,,,,,,,,,,,,,,,
2023-08-21 09:24:50,143.95,0.2897652,0.00033971665,0.2908233,0.2670265,10.30226,10.31583,0.1037999976798891,,0.0,9.8244375,0.5499999877065419,0.5499999877065419,1.0,80.0,0.0,0.0,0.0,1.5,5793.5,188.0,0.0,5.0,0.0,17548.5,-0.00554999987594775,-0.0038999999128281502,-0.026649999404326,-0.0268999993987381,2.4997999441251157,2.4922999442927534,0.0002999999932944,0.0,3.0,-2.2736355,-0.060128795,0.079655195,1.5662435000000001,-0.042036465,-0.08067170500000001,3.357533,0.3606279,0.31030199999999997,-0.038314844143596455,-0.0502128588776551,0.29087684999999996,0.5,-0.0048249998921527995,-0.02664999940432605,2.4900499443430446,-0.0690218225,-0.021188654,-0.5395687250000001,-0.5555793250000001,0.347512925,0.761522,-10.299525,9.99999977648258e-05,-0.000249999994412,-0.0001499999966472,0.6878999846242366,0.5,-0.005,0.03,-0.005,0.0128499997127801,0.0160499996412545,0.1405000066733917,0.0080000003799796,0.4810000228462734,0.0030000001424923,-0.0075000003562308,-0.0080000003799796,-0.026632265,0.0331115275,0.0,0.5,-0.0001999999955296,-0.0001499999966472,-0.0001499999966472,-0.0006499999854713,-4.99999988824129e-05,0.0006499999854713,0.0,0.0,0.0,0.0,0.0,0.39433455,0.0004990687,0.5,0.025,0.005,0.0,0.005,0.0,0.010468985,-0.087828655,-0.0860812599999999,0.0,16.0,107327.0,0.0,0.0,0.0,0.0,0.0,0.0,0.0,0.10349999768659465,0.0015999999642372,0.0,0.0,0.0049999998882412,0.003163725,0.0077908525,0.015680585,0.5,0.0,0.0,0.0,0.0,0.5,0.56633925,-0.013061719999999999,-0.00293910575,-0.8239816,0.0,0.008343138,1.14515e-05,1.32162e-05,0.003829061,0.011687875,0.011964515,0.0072990925,0.069448045,0.069444375,0.10956285,4.6513875e-11,4.6117290000000004e-11,0.0,1.3569485000000002e-10,3.140125e-07,4.3407809999999997e-07,6.079868e-09,0.00123731,2.2027065e-05,0.0012506000000000001,0.0010210535,0.001188994,0.001250025,0.40692125,0.35192049999999997,0.0,411.0,0.002500002,0.002500002,0.01230289,0.01247102,0.01099416,0.0134929,0.008765707,0.0137749,-0.006699999850243299,-0.0276999993808567,2.490249944338575,79.64999499999999,6.006442885191891e-06,1.0310285770487029e-06,0.56625025,-0.02350963,-0.00815457,-0.8238255,6.00644280019189e-06,1.0310285370487023e-06,79.09,9.827039,10.31704,0.94184165,0.96424895,0.02941016,1.0,1686.0,1494.0,1486.0,1495.0,2006.0,983.0,983.0,983.0,983.0,983.0,1995.0,1495.0,1495.0,1495.0,1495.0,1495.0,0.0,0.995,1563.5,1296.0,1294.5,1703.0,1686.0,1995.0,0.0,0.0,0.0,0.0,0.0,0.0,0.0,0.0,0.2728426,0.34208225000000003,3.784371e-10,-0.069239595,-0.068866875,0.0,-0.2575976,-0.2566532,0.7181786,0.7457655999999999,1.1294e-09,-0.027587,-0.034717465,0.0,-0.38828019999999996,-0.390296,-10.303695000000001,-10.31704,-0.56587035,-0.5572921500000001,-0.5566347,0.009212342500000002,0.03831484,0.05021286,1.0,2.545505333333333,5.563568833333333,5.6201355,0.0,0.006426504,0.0051278504999999995,0.004188641999999999,0.007079971500000001,0.038680255,,,,,,,,,,,,,,,,,1.0,0.0032728709444444,-0.00383109665499995,0.00502807052222215,-0.22613358888888885,0.0861461833333333,-9.760312333333335,0.0,0.0,51.040776111111114,1.0,1.0,6356.0,3376.6666666666665,0.0,3.0,120292400.0,2276.0,27.0,0.0064999998547136,6.006442880191891e-06,1.0310285720487027e-06,0.766999982856214,0.102,60.55469,-0.529,0.0,1.0,0.0,0.0094999997876584,0.0109999997541308,0.0146999996714293,0.0030999999307096,0.0,1.0,143.82400683127324,0.20000000949949,4.9943615,0.0,1.0,1.0,4.0,0.0,23.96059,24.298485,11.524485,0.07285581346046516,1.7531765,0.0,0.02941016,99.0,0.5,-0.16250000771833562,-0.0230000010924413,0.6720000319182864,-0.083500003966037,-0.0555000026361084,-0.0995000047259962,0.0,0.0,0.0,1.0,143.9634341365273,0.0,10.381689999999999,100585.25,0.5258999882452189,0.5510655,143.96600683801788,0.0,35.0,1.0,0.5,-1.8447825,0.6808323000000001,-2.3263717500000003,-1.4851455,-0.475883925,1.14403375,2.85904075,0.42127345,0.500609925,0.04602924,0.00314512075,0.028537862499999997,0.5,-0.02115188,0.0130347497499999,0.06591953499999995,0.06950286,-0.007707522,0.00828268882499995,-0.0376128,-0.03716579,0.0478874,0.060748952499999995,7.0,37758328.0,2.0,6.00644279019189e-06,1.0310285420487024e-06,100.0,74.82404,9.580211,0.0,224.0,0.0,4000.0,2746.0,583536.0,35.30000052601095,0.0,0.0,0.0,2314552.0,26651.0,52809.0,0.0,155.0,153.0,88.0,68.0,45.0,3.0,0.0,10.0,495.0,20125.0,199720.0,204448.0,202093.0,0.0,67.0,58.0,1.0,4563.0,0.0,0.0,30.0,131.0,8.0,123.0,1.0,5.5,300.0,0.0,0.3009499,0.7730731,-9.923686499999999,,,,,,,,,,,10.299525,-0.0048249998921527995,-0.02664999940432605,2.4900499443430446,1.5882411483312922,,,666.2872210584505,100585.25,-1.0310285720487027e-06,-6.006442880191891e-06,-10.299525,0.0,0.0,0.0,,,,,,,,,,,,,,,,,,,,,,,,,,,,,,,,,,,,
